{
"type": "FeatureCollection",
"name": "beautyKZ",
"crs": { "type": "name", "properties": { "name": "urn:ogc:def:crs:OGC:1.3:CRS84" } },
"features": [
{ "type": "Feature", "properties": { "Name": "Keruen-saray - \"Kazakhstan Venice\"", "Location": "in the Turkestan city", "Short_desc": "The largest tourist complex in Central Asia: low buildings with sand-colored domes.", "Photo": "https://strategy2050.kz/upload/medialibrary/d83/img_1776_fGW2W3nNkwgEC.JPG", "Latitude": 43.29226, "Longitude": 68.28616 }, "geometry": { "type": "Point", "coordinates": [ 68.28616, 43.29226 ] } },
{ "type": "Feature", "properties": { "Name": "Barsakelmes Island", "Location": "180 kilometers southwest of the city of Aralsk, Kyzylorda region", "Short_desc": "Barsakelmes is a former island in the Aral Sea. Barsakelmes means \"if you go, you won't come back\".", "Photo": "https://www.biletik.aero/upload/iblock/5d8/5d8258c10539fe1ae21f1f1098341280.jpg", "Latitude": 45.63397, "Longitude": 59.87181 }, "geometry": { "type": "Point", "coordinates": [ 59.87181, 45.63397 ] } },
{ "type": "Feature", "properties": { "Name": "Mausoleum of Khoja Ahmed Yasawi", "Location": "in the Turkestan city", "Short_desc": "The structure was commissioned in 1389 by Timur, who ruled the area as part of the expansive Timurid Empire, to replace a smaller one of 12th-century", "Photo": "https://whc.unesco.org/uploads/thumbs/site_1103_0003-1200-630-20130916122809.jpg", "Latitude": 43.29767, "Longitude": 68.27096 }, "geometry": { "type": "Point", "coordinates": [ 68.27096, 43.29767 ] } },
{ "type": "Feature", "properties": { "Name": "Singing dune", "Location": "300 km northeast of the city of Almaty", "Short_desc": "Singing Dunes is a phenomenon of nature, famous for the fact that when the weather is dry the sand dune emits a sound similar to the tune of organ.", "Photo": "https://altynemel.kz/images/2021/10/18/singing-dunes-kazakhstan.jpg", "Latitude": 43.86688, "Longitude": 78.56694 }, "geometry": { "type": "Point", "coordinates": [ 78.56694, 43.86688 ] } },
{ "type": "Feature", "properties": { "Name": "Charyn Canyon", "Location": "195 km east of Almaty, near the border with China", "Short_desc": "Charyn Canyon is a canyon on the Sharyn River in Kazakhstan and a part of the Charyn National Park", "Photo": "https://upload.wikimedia.org/wikipedia/commons/7/74/IMG_7431-Sharyn_canyon.jpg", "Latitude": 43.35052, "Longitude": 79.07962 }, "geometry": { "type": "Point", "coordinates": [ 79.07962, 43.35052 ] } },
{ "type": "Feature", "properties": { "Name": "Underground mosque Beket-ata", "Location": "95 km northeast of Senek village in Mangistau region", "Short_desc": "Beket Ata Underground Mosque is associated with the name of Beket Myrzagululy, an Islamic mystic who is revered as a saint by Sufi Muslims.", "Photo": "https://wildticketasia.com/uploads/posts/2022-04/1648961284_beket-ata-undeground-mosque-22.jpg", "Latitude": 43.597, "Longitude": 54.06977 }, "geometry": { "type": "Point", "coordinates": [ 54.06977, 43.597 ] } },
{ "type": "Feature", "properties": { "Name": "Khan Tengri mountain peak", "Location": "295 kilometers southeast from Almaty city", "Short_desc": "Khan Tengri is a mountain of the Tian Shan mountain range. It is on the China—Kyrgyzstan—Kazakhstan tripoint, east of lake Issyk Kul.", "Photo": "https://kantengri.kz/images/Khan-tengri-peek.jpg", "Latitude": 42.21087, "Longitude": 80.17521 }, "geometry": { "type": "Point", "coordinates": [ 80.17521, 42.21087 ] } },
{ "type": "Feature", "properties": { "Name": "Medeu-Shymbulak", "Location": "near Almaty city", "Short_desc": "Medeu is an outdoor speed skating and bandy rink. Shymbulak is the largest ski resort in Central Asia.", "Photo": "https://img-fotki.yandex.ru/get/4607/gelionsk.dc/0_4c5ac_c85c15c2_orig", "Latitude": 43.16193, "Longitude": 77.05135 }, "geometry": { "type": "Point", "coordinates": [ 77.05135, 43.16193 ] } },
{ "type": "Feature", "properties": { "Name": "Quarry \"Blue Lagoon\"", "Location": "3 km from Astana city", "Short_desc": "The blue lagoon of Astana has a fictitious name given by locals because of the unusual contrast of watercolors, which are surrounded by limestone rocks.", "Photo": "https://weproject.media/upload/iblock/d10/d101532f21d209e818c7a5a3493ad6b1.jpg", "Latitude": 51.22863, "Longitude": 71.42632 }, "geometry": { "type": "Point", "coordinates": [ 71.42632, 51.22863 ] } },
{ "type": "Feature", "properties": { "Name": "Merke Turkic Sanctuaries", "Location": "near the village of Merke in Zhambyl region", "Short_desc": "The material and spiritual culture of the Turks is expressed and embodied in the burial and ritual complexes of their sanctuaries.", "Photo": "https://qazaqstan3d.kz/upload/orig/place/611288_1504953246.png", "Latitude": 43.35669, "Longitude": 68.22958 }, "geometry": { "type": "Point", "coordinates": [ 68.22958, 43.35669 ] } },
{ "type": "Feature", "properties": { "Name": "Pink lake Kobeytuz", "Location": "near the city of Yerementau, 179 kilometers northeast of Astana", "Short_desc": "Kobeytuz is one of just a few such lakes in the world, its waters rendered pink by the presence of algae called Dunaliella Salina", "Photo": "https://kazpravda.kz/media/uploads/publication2/196/97/196979-image.jpg", "Latitude": 51.74193, "Longitude": 73.54751 }, "geometry": { "type": "Point", "coordinates": [ 73.54751, 51.74193 ] } },
{ "type": "Feature", "properties": { "Name": "Okzhetpes and Zhumbaktas", "Location": "in the center of the Blue Bay of Lake Borovoe, Akmola region", "Short_desc": "The Zhumbaktas Rock and Okzhetpes Mountain have one common history and appear to be the most attractive places of the National Park Burabay.", "Photo": "https://borovoe.kz/upload/medialibrary/61f/61f2162eac623384d3f5c75f3f3d204d.jpg", "Latitude": 53.08712, "Longitude": 70.24892 }, "geometry": { "type": "Point", "coordinates": [ 70.24892, 53.08712 ] } },
{ "type": "Feature", "properties": { "Name": "Aerial lift", "Location": "Almaty", "Short_desc": "Aerial lift connects the Medeo sports complex and the Shymbulak Ski Base", "Photo": "https://newtimes.kz/storage/news/news/2019/09/01/88e33a5e8ec75169b71fb8cd6b84357b.jpg", "Latitude": 43.1286, "Longitude": 76.90557 }, "geometry": { "type": "Point", "coordinates": [ 76.90557, 43.1286 ] } },
{ "type": "Feature", "properties": { "Name": "Glade of Abylai Khan", "Location": "at the eastern part of Mount Kokshetau, Akmola region", "Short_desc": "Glade has a special microclimate. It is believed that walking on it and the air of the coniferous forest helps to improve human health.", "Photo": "https://www.visitaqmola.kz/wp-content/uploads/2018/07/wheretogo_burabay_museum_-ablaikhanglade4.png", "Latitude": 53.08316, "Longitude": 70.23569 }, "geometry": { "type": "Point", "coordinates": [ 70.23569, 53.08316 ] } },
{ "type": "Feature", "properties": { "Name": "The Astana Grand Mosque", "Location": "Astana", "Short_desc": "It is the largest mosque in Central Asia and one of the largest in the world.", "Photo": "https://upload.wikimedia.org/wikipedia/commons/thumb/0/00/Grand_Mosque_in_Astana%2C_Kazakhstan.jpg/1200px-Grand_Mosque_in_Astana%2C_Kazakhstan.jpg", "Latitude": 51.07231, "Longitude": 71.41209 }, "geometry": { "type": "Point", "coordinates": [ 71.41209, 51.07231 ] } },
{ "type": "Feature", "properties": { "Name": "Arystanbab Mausoleum", "Location": "Turkestan city", "Short_desc": "One of the holiest places in the Turkistan Province is the Mausoleum of Arystan Bab, founded in the 12th century.", "Photo": "https://www.skyway.kz/wp-content/uploads/2019/03/1.jpg", "Latitude": 42.85573, "Longitude": 68.26816 }, "geometry": { "type": "Point", "coordinates": [ 68.26816, 42.85573 ] } },
{ "type": "Feature", "properties": { "Name": "Cave Kenesary", "Location": "6 km from the sanatorium Okzhetpes in Borovoe, Akmola region", "Short_desc": "One of the iconic places of the Burabay National Park is named after Kenesary Khan, Kazakh national hero.", "Photo": "https://www.visitaqmola.kz/wp-content/uploads/2018/10/771bfd33-10c7-454d-9c2a-11d95a0a0f64.jpg", "Latitude": 53.05958, "Longitude": 70.25022 }, "geometry": { "type": "Point", "coordinates": [ 70.25022, 53.05958 ] } },
{ "type": "Feature", "properties": { "Name": "Kazakh Switzerland", "Location": "East Kazakhstan", "Short_desc": "There are 24 nature protection zones in the region, more than 600 historical monuments and over 100 objects of tourist interest.", "Photo": "https://weproject.media/upload/medialibrary/0b3/0b32c19ac3fad7dc5792770b9bb23953.jpg", "Latitude": 49.17464, "Longitude": 85.59 }, "geometry": { "type": "Point", "coordinates": [ 85.59, 49.17464 ] } },
{ "type": "Feature", "properties": { "Name": "Kabanbay Batyr Mausoleum", "Location": "17 kilometers from Astana", "Short_desc": "Kabanbai Batyr Mausoleum, located in the vicinity of the capital of Kazakhstan, is an iconic place for the Kazakh people", "Photo": "https://www.visitaqmola.kz/wp-content/uploads/2018/10/IMG_8336-min.jpg", "Latitude": 50.8726, "Longitude": 71.40977 }, "geometry": { "type": "Point", "coordinates": [ 71.40977, 50.8726 ] } },
{ "type": "Feature", "properties": { "Name": "Petroglyphs of Tanbaly", "Location": "170 km northwest of Almaty", "Short_desc": "Set around the lush Tanbaly Gorge, amidst the vast, arid Chu-Ili mountains, is a remarkable concentration of some 5,000 petroglyphs (rock carvings)", "Photo": "https://tanbaly.kz/en/img/petroglify_18.jpg", "Latitude": 43.80668, "Longitude": 75.53902 }, "geometry": { "type": "Point", "coordinates": [ 75.53902, 43.80668 ] } }
]
}
