{
"type": "FeatureCollection",
"name": "caves",
"crs": { "type": "name", "properties": { "name": "urn:ogc:def:crs:OGC:1.3:CRS84" } },
"features": [
{ "type": "Feature", "properties": { "osm_id": "724251286", "code": 4132, "fclass": "cave_entrance", "name": "Kenesary cave" }, "geometry": { "type": "Point", "coordinates": [ 70.251414, 53.0603328 ] } },
{ "type": "Feature", "properties": { "osm_id": "2884737866", "code": 4132, "fclass": "cave_entrance", "name": "Amangeldy cave" }, "geometry": { "type": "Point", "coordinates": [ 74.832667, 47.4384 ] } },
{ "type": "Feature", "properties": { "osm_id": "3062390037", "code": 4132, "fclass": "cave_entrance", "name": "Aqmejit" }, "geometry": { "type": "Point", "coordinates": [ 69.7039567, 43.0061924 ] } },
{ "type": "Feature", "properties": { "osm_id": "4023856831", "code": 4132, "fclass": "cave_entrance", "name": "Aylie cave" }, "geometry": { "type": "Point", "coordinates": [ 75.4215278, 48.4518639 ] } },
{ "type": "Feature", "properties": { "osm_id": "4855500104", "code": 4132, "fclass": "cave_entrance", "name": "Balauk" }, "geometry": { "type": "Point", "coordinates": [ 54.7332054, 42.4466045 ] } },
{ "type": "Feature", "properties": { "osm_id": "4855511217", "code": 4132, "fclass": "cave_entrance", "name": "Mangyshlak" }, "geometry": { "type": "Point", "coordinates": [ 54.7106701, 42.460045 ] } },
{ "type": "Feature", "properties": { "osm_id": "4855511218", "code": 4132, "fclass": "cave_entrance", "name": "Utebay" }, "geometry": { "type": "Point", "coordinates": [ 54.6475175, 42.4847627 ] } },
{ "type": "Feature", "properties": { "osm_id": "6812134309", "code": 4132, "fclass": "cave_entrance", "name": "Konyr" }, "geometry": { "type": "Point", "coordinates": [ 78.5346546, 49.105382 ] } },
{ "type": "Feature", "properties": { "osm_id": "8983503677", "code": 4132, "fclass": "cave_entrance", "name": "Kenebay cave" }, "geometry": { "type": "Point", "coordinates": [ 48.8044474, 47.6491134 ] } },
{ "type": "Feature", "properties": { "osm_id": "8985428926", "code": 4132, "fclass": "cave_entrance", "name": "Imangar cave" }, "geometry": { "type": "Point", "coordinates": [ 54.4577414, 47.4047425 ] } },
{ "type": "Feature", "properties": { "osm_id": "9364755603", "code": 4132, "fclass": "cave_entrance", "name": "Парк Ворота" }, "geometry": { "type": "Point", "coordinates": [ 68.4937535, 40.8511813 ] } }
]
}
